City_ID,City,Lat,Lng,Max Temp,Humidity,Cloudiness,Cloudiness Numberical,Wind Speed,Country,Date
0,emerald,-23.5333,148.1667,74.98,42,broken clouds,84,12.24,AU,2025-03-06 15:14:32
1,papatowai,-46.5619,169.4708,51.19,88,overcast clouds,100,6.76,NZ,2025-03-06 15:14:34
2,puerto natales,-51.7236,-72.4875,46.04,86,light rain,100,5.14,CL,2025-03-06 15:14:35
3,faya-largeau,17.9257,19.1043,75.85,18,overcast clouds,98,17.52,TD,2025-03-06 15:14:36
4,klyuchi,52.2667,79.1667,33.44,79,overcast clouds,95,20.09,RU,2025-03-06 15:14:37
5,longyearbyen,78.2186,15.6401,21.04,93,light snow,100,3.44,SJ,2025-03-06 15:14:38
6,la passe,45.5549,-0.8967,56.1,73,overcast clouds,98,15.68,FR,2025-03-06 15:14:39
7,iqaluit,63.7506,-68.5145,-2.31,70,few clouds,16,3.0,CA,2025-03-06 15:14:40
8,west island,-12.1568,96.8225,80.58,94,light rain,40,12.66,CC,2025-03-06 15:10:54
9,edinburgh of the seven seas,-37.0676,-12.3116,63.36,75,overcast clouds,100,19.3,SH,2025-03-06 15:14:44
10,ushuaia,-54.8,-68.3,55.06,54,scattered clouds,40,4.61,AR,2025-03-06 15:10:58
11,vadso,70.0744,29.7487,19.56,79,broken clouds,75,16.11,NO,2025-03-06 15:14:46
12,amahai,-3.3333,128.9167,78.37,83,overcast clouds,100,4.9,ID,2025-03-06 15:14:47
13,puerto ayora,-0.7393,-90.3518,83.55,90,light rain,84,3.0,EC,2025-03-06 15:14:48
14,yellowknife,62.456,-114.3525,9.41,84,scattered clouds,37,8.01,CA,2025-03-06 15:12:01
15,bethel,41.3712,-73.414,50.94,75,overcast clouds,100,9.22,US,2025-03-06 15:14:50
16,olonkinbyen,70.9221,-8.7187,25.43,67,overcast clouds,99,7.31,SJ,2025-03-06 15:14:51
17,invercargill,-46.4,168.35,51.03,93,overcast clouds,100,3.15,NZ,2025-03-06 15:14:52
18,tiksi,71.6872,128.8694,-13.54,99,overcast clouds,100,7.94,RU,2025-03-06 15:14:53
19,whitehorse,60.7161,-135.0538,40.01,69,broken clouds,54,15.99,CA,2025-03-06 15:14:55
20,port-aux-francais,-49.35,70.2167,45.61,91,overcast clouds,94,23.35,TF,2025-03-06 15:14:56
21,mugumu,-1.85,34.7,72.43,43,overcast clouds,100,2.91,TZ,2025-03-06 15:14:57
22,adamstown,-25.066,-130.1015,78.1,75,clear sky,1,9.19,PN,2025-03-06 15:14:58
23,college,64.8569,-147.8028,29.08,74,light snow,75,0.0,US,2025-03-06 15:14:59
24,grytviken,-54.2811,-36.5092,39.61,84,light rain,22,12.01,GS,2025-03-06 15:15:00
25,gazojak,41.1875,61.4036,44.87,62,overcast clouds,100,13.31,TM,2025-03-06 15:15:01
26,north shore,-36.8,174.75,59.47,81,clear sky,0,3.0,NZ,2025-03-06 15:15:02
27,yerofey pavlovich,53.9667,121.9667,-11.25,95,scattered clouds,29,3.06,RU,2025-03-06 15:15:03
28,aasiaat,68.7098,-52.8699,-7.19,99,broken clouds,83,1.72,GL,2025-03-06 15:15:05
29,hobyo,5.3505,48.5268,79.66,84,broken clouds,57,14.32,SO,2025-03-06 15:15:06
30,albany,42.6001,-73.9662,40.55,71,overcast clouds,97,5.01,US,2025-03-06 15:14:04
31,port elizabeth,-33.918,25.5701,72.32,88,overcast clouds,97,11.01,ZA,2025-03-06 15:15:08
32,waitangi,-43.9535,-176.5597,57.81,98,light rain,99,8.01,NZ,2025-03-06 15:15:09
33,holualoa,19.6228,-155.9522,76.82,75,haze,40,8.05,US,2025-03-06 15:15:10
34,coahuayana de hidalgo,18.7,-103.6583,87.55,44,clear sky,0,8.03,MX,2025-03-06 15:15:11
35,codrington,-38.2667,141.9667,60.1,94,clear sky,0,9.28,AU,2025-03-06 15:15:13
36,hawaiian paradise park,19.5933,-154.9731,78.31,79,moderate rain,75,5.75,US,2025-03-06 15:15:15
37,dryden,49.7833,-92.7503,18.82,67,broken clouds,81,13.94,CA,2025-03-06 15:15:16
38,yuzhno-kurilsk,44.0306,145.8556,25.3,93,overcast clouds,100,10.54,RU,2025-03-06 15:15:17
39,harran,36.86,39.0314,53.35,47,clear sky,0,4.09,TR,2025-03-06 15:15:19
40,olyokminsk,60.3736,120.4264,4.32,98,overcast clouds,100,3.85,RU,2025-03-06 15:15:21
41,revda,56.801,59.9303,7.65,99,overcast clouds,100,0.87,RU,2025-03-06 15:15:22
42,klaksvik,62.2266,-6.589,37.63,99,moderate rain,100,19.46,FO,2025-03-06 15:15:24
43,syktyvkar,61.6764,50.8099,20.93,86,broken clouds,75,4.47,RU,2025-03-06 15:15:25
44,vorkuta,67.5,64.0,-15.47,100,overcast clouds,88,3.89,RU,2025-03-06 15:15:26
45,novodvinsk,64.4165,40.8122,29.95,98,light snow,100,4.18,RU,2025-03-06 15:15:27
46,ola,59.5833,151.2833,-6.43,98,overcast clouds,100,2.42,RU,2025-03-06 15:15:28
47,wailua homesteads,22.0669,-159.378,74.19,91,light rain,75,12.66,US,2025-03-06 15:15:29
48,barabai,-2.5833,115.3833,75.13,98,heavy intensity rain,100,0.96,ID,2025-03-06 15:15:30
49,saint-joseph,-21.3667,55.6167,79.18,77,clear sky,0,13.0,RE,2025-03-06 15:15:31
50,ondjiva,-17.0667,15.7333,74.68,59,scattered clouds,37,5.35,AO,2025-03-06 15:15:32
51,bloomfield,40.8068,-74.1854,50.68,56,overcast clouds,100,17.27,US,2025-03-06 15:15:33
52,ormara,25.2088,64.6357,74.84,69,clear sky,0,19.69,PK,2025-03-06 15:15:35
53,port douglas,-16.4833,145.4667,76.3,77,few clouds,11,3.04,AU,2025-03-06 15:15:36
54,nizhniy odes,63.6445,54.856,12.45,92,overcast clouds,95,9.51,RU,2025-03-06 15:15:37
55,laayoune,27.1622,-13.2032,63.18,71,clear sky,0,9.62,EH,2025-03-06 15:15:38
56,daru,-9.0763,143.2092,79.63,84,broken clouds,77,1.97,PG,2025-03-06 15:15:39
57,ocean city,39.2776,-74.5746,50.18,56,broken clouds,72,13.0,US,2025-03-06 15:15:40
58,zhicheng,30.2956,111.5047,43.2,68,few clouds,24,1.54,CN,2025-03-06 15:15:41
59,georgetown,5.4112,100.3354,82.33,82,few clouds,20,3.44,MY,2025-03-06 15:15:42
60,nar'yan-mar,67.6713,53.087,12.38,93,overcast clouds,100,11.36,RU,2025-03-06 15:15:44
61,udachny,66.4167,112.4,-12.59,100,overcast clouds,100,3.11,RU,2025-03-06 15:15:45
62,puerto aysen,-45.4,-72.7,57.25,96,light rain,100,4.21,CL,2025-03-06 15:15:46
63,lihue,21.9789,-159.3672,74.79,88,light rain,75,12.66,US,2025-03-06 15:15:47
64,cadale,2.7603,46.3222,79.75,88,overcast clouds,95,14.23,SO,2025-03-06 15:15:48
65,lompoc,34.6391,-120.4579,51.69,76,overcast clouds,100,13.8,US,2025-03-06 15:13:03
66,isafjordur,66.0755,-23.124,29.55,92,snow,100,2.62,IS,2025-03-06 15:15:50
67,jiuquan,39.7432,98.5174,34.45,31,few clouds,22,6.69,CN,2025-03-06 15:15:51
68,vorgashor,67.5833,63.95,-14.21,100,broken clouds,83,4.36,RU,2025-03-06 15:15:52
69,cumana,10.4635,-64.1775,81.88,68,scattered clouds,49,14.45,VE,2025-03-06 15:15:53
70,bilibino,68.0546,166.4372,-29.33,100,overcast clouds,89,2.93,RU,2025-03-06 15:15:55
71,port mathurin,-19.6833,63.4167,81.61,80,scattered clouds,26,24.29,MU,2025-03-06 15:15:56
72,north cowichan,48.8413,-123.686,51.67,72,broken clouds,63,5.14,CA,2025-03-06 15:15:57
73,pitimbu,-7.4706,-34.8086,81.64,76,broken clouds,69,13.2,BR,2025-03-06 15:15:58
74,bredasdorp,-34.5322,20.0403,67.06,78,clear sky,2,2.68,ZA,2025-03-06 15:15:59
75,pizhou,34.3114,117.9503,38.88,65,overcast clouds,100,5.41,CN,2025-03-06 15:16:00
76,cidreira,-30.1811,-50.2056,79.29,79,clear sky,0,16.13,BR,2025-03-06 15:14:54
77,turpan,42.9333,89.1667,41.05,34,clear sky,1,2.44,CN,2025-03-06 15:16:02
78,kapuskasing,49.4169,-82.4331,13.84,93,light snow,100,11.48,CA,2025-03-06 15:16:03
79,blackmans bay,-43.0167,147.3167,50.52,90,clear sky,3,1.01,AU,2025-03-06 15:16:05
80,port hedland,-20.3167,118.5667,80.65,100,broken clouds,75,6.91,AU,2025-03-06 15:16:06
81,prince rupert,54.3161,-130.3201,42.89,87,light rain,100,9.22,CA,2025-03-06 15:16:07
82,punta alta,-38.8759,-62.0736,77.2,77,overcast clouds,100,9.84,AR,2025-03-06 15:16:08
83,sauk rapids,45.5919,-94.1661,39.18,60,broken clouds,75,9.22,US,2025-03-06 15:16:09
84,bella union,-30.2752,-57.6007,94.42,33,broken clouds,80,12.48,UY,2025-03-06 15:16:10
85,gulf shores,30.246,-87.7008,65.43,31,clear sky,0,13.8,US,2025-03-06 15:13:03
86,salinopolis,-0.6136,-47.3561,78.73,86,overcast clouds,100,4.5,BR,2025-03-06 15:16:12
87,tomatlan,19.9333,-105.25,85.73,42,clear sky,1,11.77,MX,2025-03-06 15:16:14
88,tarrafal,15.2833,-23.7667,69.19,68,few clouds,16,19.75,CV,2025-03-06 15:16:15
89,qaqortoq,60.7167,-46.0333,10.45,88,clear sky,8,1.68,GL,2025-03-06 15:16:16
90,langepas,61.2544,75.2124,17.47,94,light snow,100,14.79,RU,2025-03-06 15:16:17
91,slave lake,55.2834,-114.769,36.75,78,clear sky,10,10.45,CA,2025-03-06 15:15:03
92,uporovo,56.3109,66.2693,13.66,96,overcast clouds,95,7.27,RU,2025-03-06 15:16:19
93,egilsstadir,65.2653,-14.3948,26.64,83,scattered clouds,28,1.59,IS,2025-03-06 15:16:20
94,punta arenas,-53.15,-70.9167,50.11,62,clear sky,0,8.05,CL,2025-03-06 15:14:18
95,new norfolk,-42.7826,147.0587,51.71,98,few clouds,11,2.68,AU,2025-03-06 15:16:24
96,al karamah,31.9522,35.5792,65.53,48,light rain,55,7.4,JO,2025-03-06 15:16:25
97,odda,60.0691,6.5457,40.44,99,overcast clouds,100,8.63,NO,2025-03-06 15:16:26
98,metro,-5.1131,105.3067,74.41,90,heavy intensity rain,100,5.46,ID,2025-03-06 15:16:27
99,lionel town,17.8101,-77.2406,85.69,56,clear sky,1,8.05,JM,2025-03-06 15:16:28
100,cockburn town,21.4612,-71.1419,78.48,75,clear sky,0,5.01,TC,2025-03-06 15:16:29
101,fallon,39.4735,-118.7774,35.47,95,mist,100,16.11,US,2025-03-06 15:16:31
102,devils lake,48.1128,-98.8651,31.95,57,few clouds,20,12.66,US,2025-03-06 15:12:45
103,ribeira grande,38.5167,-28.7,54.0,76,light intensity shower rain,75,15.99,PT,2025-03-06 15:16:33
104,bikin,46.8161,134.26,-1.84,99,scattered clouds,29,1.45,RU,2025-03-06 15:16:34
105,vilyuchinsk,52.9306,158.4028,7.07,78,overcast clouds,100,6.87,RU,2025-03-06 15:16:35
106,afaahiti,-17.75,-149.2833,80.31,74,overcast clouds,87,12.5,PF,2025-03-06 15:16:36
107,tsiombe,-25.3,45.4833,78.39,91,clear sky,0,2.28,MG,2025-03-06 15:16:37
108,lata,40.1629,-8.3327,50.31,95,light rain,97,3.18,PT,2025-03-06 15:16:38
109,caleta de carquin,-11.0925,-77.6267,76.98,73,broken clouds,58,10.71,PE,2025-03-06 15:16:40
110,lubango,-14.9172,13.4925,62.19,92,light rain,100,1.99,AO,2025-03-06 15:16:41
111,howard springs,-12.497,131.047,78.71,88,scattered clouds,31,4.94,AU,2025-03-06 15:16:42
112,stanley,54.868,-1.6985,53.62,57,clear sky,0,10.36,GB,2025-03-06 15:14:46
113,lebu,-37.6167,-73.65,62.35,98,moderate rain,100,12.59,CL,2025-03-06 15:16:45
114,chulakkurgan,43.765,69.1814,36.91,81,overcast clouds,100,10.85,KZ,2025-03-06 15:16:46
115,port alfred,-33.5906,26.891,71.19,93,broken clouds,83,3.0,ZA,2025-03-06 15:16:47
116,dudinka,69.4058,86.1778,11.57,96,light snow,100,3.53,RU,2025-03-06 15:16:48
117,javanrud,34.7961,46.5172,45.66,68,broken clouds,79,3.65,IR,2025-03-06 15:16:50
118,tommot,58.9564,126.2925,-11.0,99,overcast clouds,99,2.08,RU,2025-03-06 15:16:51
119,sunzha,43.3211,45.0522,41.67,63,overcast clouds,95,3.49,RU,2025-03-06 15:16:52
120,pisco,-13.7,-76.2167,80.65,61,clear sky,0,17.27,PE,2025-03-06 15:16:53
121,iskateley,67.6803,53.1512,12.54,92,overcast clouds,100,11.45,RU,2025-03-06 15:16:54
122,tokat,40.4167,36.5833,32.43,62,broken clouds,83,2.84,TR,2025-03-06 15:16:55
123,atafu village,-8.5421,-172.5159,81.73,71,few clouds,24,6.04,TK,2025-03-06 15:16:56
124,cambara,-23.0464,-50.0736,88.81,39,few clouds,11,4.03,BR,2025-03-06 15:16:57
125,kodiak,57.79,-152.4072,36.91,81,clear sky,0,3.44,US,2025-03-06 15:16:59
126,chimore,-16.9833,-65.1333,77.92,96,overcast clouds,100,3.87,BO,2025-03-06 15:17:00
127,san patricio,28.017,-97.5169,78.75,39,clear sky,3,20.18,US,2025-03-06 15:17:01
128,alotau,-10.3069,150.4462,78.22,92,overcast clouds,95,6.64,PG,2025-03-06 15:17:02
129,badger,64.8,-147.5333,32.25,70,broken clouds,75,0.0,US,2025-03-06 15:17:03
130,laojunmiao,39.8333,97.7333,27.16,26,scattered clouds,25,7.54,CN,2025-03-06 15:17:05
131,manistee,44.2445,-86.3242,32.16,65,few clouds,20,14.97,US,2025-03-06 15:17:06
132,soroti,1.7146,33.6111,80.08,36,overcast clouds,93,2.95,UG,2025-03-06 15:17:07
133,margaret river,-33.95,115.0667,65.66,89,scattered clouds,30,10.0,AU,2025-03-06 15:17:08
134,haiku-pauwela,20.9219,-156.3051,79.25,65,few clouds,20,24.0,US,2025-03-06 15:17:09
135,mareeba,-17.0,145.4333,67.19,87,clear sky,3,1.3,AU,2025-03-06 15:17:11
136,ilulissat,69.2167,-51.1,3.22,78,few clouds,20,4.61,GL,2025-03-06 15:17:12
137,manokwari,-0.8667,134.0833,76.75,83,overcast clouds,100,3.87,ID,2025-03-06 15:17:13
138,bom jardim,-7.7958,-35.5872,81.21,64,overcast clouds,100,15.1,BR,2025-03-06 15:17:14
139,fiambala,-27.6871,-67.6149,89.82,34,clear sky,0,15.43,AR,2025-03-06 15:17:15
140,utrik,11.2278,169.8474,80.28,81,light rain,1,25.21,MH,2025-03-06 15:17:16
141,dedougou,12.4667,-3.4667,91.63,28,light rain,100,4.14,BF,2025-03-06 15:12:23
142,constitucion,-35.3333,-72.4167,67.39,80,overcast clouds,100,7.36,CL,2025-03-06 15:17:18
143,arhribs,36.7936,4.3116,52.93,83,broken clouds,79,4.32,DZ,2025-03-06 15:17:20
144,progreso,21.2833,-89.6667,77.97,54,clear sky,0,15.12,MX,2025-03-06 15:17:21
145,dunedin,-45.8742,170.5036,53.8,97,overcast clouds,100,7.0,NZ,2025-03-06 15:17:23
146,ust-nera,64.5667,143.2,-22.02,100,overcast clouds,100,2.24,RU,2025-03-06 15:17:24
147,saldanha,-33.0117,17.9442,64.83,91,clear sky,0,15.28,ZA,2025-03-06 15:17:25
148,thinadhoo,0.5333,72.9333,81.93,72,clear sky,3,3.42,MV,2025-03-06 15:17:26
149,benguela,-12.5763,13.4055,80.94,79,light rain,100,7.38,AO,2025-03-06 15:17:27
150,taber,49.8167,-112.1518,42.58,47,clear sky,9,8.5,CA,2025-03-06 15:17:28
151,suzun,53.7841,82.3116,29.8,97,snow,100,12.75,RU,2025-03-06 15:17:29
152,la foa,-21.7108,165.8276,76.59,83,clear sky,9,4.61,NC,2025-03-06 15:17:30
153,colonia,50.9333,6.95,55.96,41,clear sky,0,10.36,DE,2025-03-06 15:17:33
154,ad dawadimi,24.5077,44.3924,63.75,73,light rain,100,2.44,SA,2025-03-06 15:16:57
155,ponta delgada,37.7333,-25.6667,54.95,66,broken clouds,54,28.74,PT,2025-03-06 15:17:35
156,sastobe,42.55,70.0,42.26,66,overcast clouds,100,15.17,KZ,2025-03-06 15:17:36
157,bontang,0.1333,117.5,78.12,87,overcast clouds,100,7.94,ID,2025-03-06 15:17:37
158,natal,-5.795,-35.2094,83.05,74,few clouds,20,11.5,BR,2025-03-06 15:16:07
159,meizhou,24.2977,116.1072,49.28,89,overcast clouds,100,3.85,CN,2025-03-06 15:17:40
160,leava,-14.3,-178.1667,82.96,75,overcast clouds,95,17.4,WF,2025-03-06 15:17:41
161,hasaki,35.7333,140.8333,44.96,49,overcast clouds,96,27.54,JP,2025-03-06 15:17:37
162,pamandzi,-12.7967,45.2794,83.98,79,clear sky,0,5.75,YT,2025-03-06 15:17:43
163,talnakh,69.4865,88.3972,8.26,96,light snow,100,3.85,RU,2025-03-06 15:17:44
164,carnarvon,-24.8667,113.6333,79.88,65,scattered clouds,50,20.8,AU,2025-03-06 15:17:45
165,fort st. john,56.2499,-120.8529,42.69,45,broken clouds,75,13.8,CA,2025-03-06 15:17:46
166,grand falls-windsor,48.9332,-55.6649,32.5,92,overcast clouds,100,4.0,CA,2025-03-06 15:14:00
167,yokadouma,3.5167,15.05,75.92,78,overcast clouds,99,2.75,CM,2025-03-06 15:17:49
168,havre,49.5833,0.3333,56.97,54,clear sky,0,10.36,FR,2025-03-06 15:17:50
169,coquimbo,-29.9533,-71.3436,69.53,62,few clouds,20,14.97,CL,2025-03-06 15:17:51
170,chongwe,-15.3292,28.682,66.18,97,broken clouds,74,4.16,ZM,2025-03-06 15:17:52
171,price,39.5994,-110.8107,38.46,93,overcast clouds,100,14.97,US,2025-03-06 15:17:53
172,tafresh,34.692,50.013,41.02,77,overcast clouds,98,0.6,IR,2025-03-06 15:17:54
173,hermanus,-34.4187,19.2345,59.81,85,clear sky,0,3.4,ZA,2025-03-06 15:15:54
174,road town,18.4167,-64.6167,77.04,88,broken clouds,75,10.36,VG,2025-03-06 15:17:57
175,hadibu,12.65,54.0333,76.33,81,few clouds,23,9.71,YE,2025-03-06 15:17:58
176,hamilton,39.1834,-84.5333,44.92,54,broken clouds,75,19.57,US,2025-03-06 15:17:59
177,la mira,18.035,-102.3266,82.72,55,clear sky,0,10.58,MX,2025-03-06 15:18:01
178,mata-utu,-13.2816,-176.1745,82.54,75,light rain,97,13.09,WF,2025-03-06 15:18:02
179,st. john's,47.5649,-52.7093,33.15,94,light snow,100,17.27,CA,2025-03-06 15:18:03
180,avarua,-21.2078,-159.775,82.45,89,light rain,75,4.61,CK,2025-03-06 15:18:05
181,touros,-5.1989,-35.4608,81.97,72,overcast clouds,100,16.42,BR,2025-03-06 15:18:06
182,viedma,-40.8135,-62.9967,83.35,54,overcast clouds,100,18.19,AR,2025-03-06 15:15:24
183,nabire,-3.3667,135.4833,73.69,92,overcast clouds,99,3.13,ID,2025-03-06 15:18:08
184,puerto ayacucho,5.6639,-67.6236,94.64,39,broken clouds,84,4.38,VE,2025-03-06 15:18:10
185,gadzhiyevo,69.2551,33.3362,20.71,95,overcast clouds,98,5.12,RU,2025-03-06 15:18:11
186,morehead city,34.7229,-76.726,54.01,49,broken clouds,57,11.01,US,2025-03-06 15:13:38
187,bocas del toro,9.3333,-82.25,80.46,72,broken clouds,53,6.15,PA,2025-03-06 15:18:14
188,flying fish cove,-10.4217,105.6791,80.28,94,overcast clouds,100,3.44,CX,2025-03-06 15:18:15
189,uchiza,-8.4592,-76.4633,76.28,94,overcast clouds,100,1.99,PE,2025-03-06 15:18:16
190,yazykovo,55.2199,56.1353,14.27,99,overcast clouds,100,3.49,RU,2025-03-06 15:18:17
191,kailua-kona,19.6406,-155.9956,79.56,79,haze,40,8.05,US,2025-03-06 15:18:18
192,sarpol-e zahab,34.4611,45.8626,56.75,58,clear sky,0,5.55,IR,2025-03-06 15:18:19
193,santa rosa misiones,-26.8667,-56.85,95.7,31,scattered clouds,46,11.16,PY,2025-03-06 15:18:20
194,petropavlovsk-kamchatsky,53.0452,158.6483,5.59,56,broken clouds,75,4.47,RU,2025-03-06 15:18:21
195,serov,59.6033,60.5787,10.94,97,overcast clouds,99,4.03,RU,2025-03-06 15:18:22
196,kabompo,-13.5927,24.2008,68.47,96,light rain,96,5.97,ZM,2025-03-06 15:18:24
197,smithers,54.7804,-127.1743,39.52,60,broken clouds,75,4.61,CA,2025-03-06 15:18:25
198,kawalu,-7.3817,108.2082,71.04,98,overcast clouds,100,2.04,ID,2025-03-06 15:18:26
199,stephenville,32.2207,-98.2023,67.24,26,clear sky,0,18.41,US,2025-03-06 15:18:27
200,ndjole,-0.1783,10.7649,77.4,94,overcast clouds,100,1.28,GA,2025-03-06 15:18:29
201,port lincoln,-34.7333,135.8667,64.2,86,scattered clouds,30,16.15,AU,2025-03-06 15:18:31
202,palmer,42.1584,-72.3287,50.9,60,overcast clouds,100,10.36,US,2025-03-06 15:18:32
203,vila franca do campo,37.7167,-25.4333,53.31,71,broken clouds,51,23.85,PT,2025-03-06 15:18:33
204,cabo san lucas,22.8909,-109.9124,80.91,31,broken clouds,75,11.5,MX,2025-03-06 15:18:34
205,lorengau,-2.0226,147.2712,81.54,74,broken clouds,73,8.79,PG,2025-03-06 15:18:35
206,aioun,16.6614,-9.6149,86.95,20,few clouds,24,8.46,MR,2025-03-06 15:18:36
207,suances,43.4334,-4.0434,64.24,45,clear sky,0,10.36,ES,2025-03-06 15:18:37
208,idri,27.5,13.2667,67.84,32,overcast clouds,100,12.19,LY,2025-03-06 15:18:38
209,ancud,-41.8697,-73.8203,58.17,72,overcast clouds,100,4.85,CL,2025-03-06 15:15:48
210,tazovsky,67.4667,78.7,-9.04,100,overcast clouds,98,5.37,RU,2025-03-06 15:18:41
211,fort bragg,35.139,-79.006,57.04,37,few clouds,20,21.85,US,2025-03-06 15:18:42
212,mount gambier,-37.8333,140.7667,63.07,83,broken clouds,78,5.82,AU,2025-03-06 15:18:44
213,uturoa,-16.7333,-151.4333,81.9,73,light rain,17,7.72,PF,2025-03-06 15:18:45
214,quepos,9.4236,-84.1652,85.59,66,broken clouds,73,9.91,CR,2025-03-06 15:18:46
215,axim,4.8699,-2.2405,81.36,82,overcast clouds,100,7.14,GH,2025-03-06 15:16:03
216,karmaskaly,54.3709,56.1837,21.11,98,overcast clouds,100,4.97,RU,2025-03-06 15:18:48
217,igarka,67.4667,86.5833,8.96,98,overcast clouds,100,4.18,RU,2025-03-06 15:18:49
218,antsiranana,-12.2787,49.2917,77.18,88,overcast clouds,97,7.63,MG,2025-03-06 15:18:50
219,east london,-33.0153,27.9116,75.7,82,broken clouds,67,13.67,ZA,2025-03-06 15:18:51
220,sinabang,2.4803,96.3801,77.49,89,broken clouds,56,9.04,ID,2025-03-06 15:18:53
221,sisimiut,66.9395,-53.6735,-3.08,97,broken clouds,71,4.74,GL,2025-03-06 15:18:54
222,thompson,55.7435,-97.8558,10.56,56,few clouds,20,13.8,CA,2025-03-06 15:18:55
223,tvoroyri,61.5556,-6.8111,38.82,98,moderate rain,100,32.68,FO,2025-03-06 15:18:56
224,lubao,14.9167,120.55,80.31,82,few clouds,19,4.99,PH,2025-03-06 15:18:57
225,kattivakkam,13.2167,80.3167,80.13,67,clear sky,6,2.8,IN,2025-03-06 15:18:58
226,fale old settlement,-9.3852,-171.2468,82.58,67,broken clouds,80,5.73,TK,2025-03-06 15:18:59
227,mocoreta,-30.6189,-57.9634,98.42,26,overcast clouds,89,14.14,AR,2025-03-06 15:19:00
228,arauca,7.0847,-70.7591,91.36,52,moderate rain,40,3.44,CO,2025-03-06 15:19:01
229,qarqaraly,49.4058,75.4742,22.19,85,overcast clouds,100,18.52,KZ,2025-03-06 15:19:02
230,kargopol',61.5071,38.9456,32.04,99,light snow,100,3.09,RU,2025-03-06 15:19:04
231,lazaro cardenas,17.9583,-102.2,81.79,57,clear sky,0,10.16,MX,2025-03-06 15:19:05
232,nova vicosa,-17.8919,-39.3719,80.53,73,few clouds,21,9.13,BR,2025-03-06 15:19:06
233,hithadhoo,-0.6,73.0833,80.73,74,clear sky,10,3.04,MV,2025-03-06 15:19:07
234,keflavik,64.0049,-22.5624,36.03,60,clear sky,0,2.3,IS,2025-03-06 15:19:08
235,tegueste,28.5167,-16.3167,58.98,87,scattered clouds,40,5.99,ES,2025-03-06 15:19:09
236,pandan,14.0453,124.1694,77.43,91,scattered clouds,38,6.73,PH,2025-03-06 15:19:11
237,kudahuvadhoo,2.6708,72.8944,82.13,68,broken clouds,64,7.31,MV,2025-03-06 15:19:12
238,aberdeen,57.1437,-2.0981,52.29,79,few clouds,20,21.85,GB,2025-03-06 15:18:57
239,al ghayzah,16.2079,52.176,73.45,83,few clouds,24,3.83,YE,2025-03-06 15:19:14
240,kataba,8.4604,-0.7732,94.57,37,overcast clouds,99,7.52,GH,2025-03-06 15:19:15
241,jamestown,42.097,-79.2353,28.02,84,mist,100,23.02,US,2025-03-06 15:17:45
242,adrar,20.5022,-10.0711,70.66,42,overcast clouds,89,12.39,MR,2025-03-06 15:19:17
243,sanibel,26.449,-82.0223,68.02,57,clear sky,2,5.99,US,2025-03-06 15:17:20
244,kapa'a,22.0752,-159.319,75.52,91,light rain,75,12.66,US,2025-03-06 15:19:19
245,rhar el melah,37.1694,10.1906,57.78,89,overcast clouds,100,27.67,TN,2025-03-06 15:19:20
246,al majaridah,19.1236,41.9111,80.83,51,clear sky,3,1.5,SA,2025-03-06 15:19:22
247,enewetak,11.3474,162.3373,79.68,78,clear sky,8,23.02,MH,2025-03-06 15:19:23
248,papao,-17.75,-149.55,85.68,69,broken clouds,62,10.22,PF,2025-03-06 15:19:24
249,tolu viejo,9.4508,-75.4386,84.16,65,light rain,100,13.58,CO,2025-03-06 15:19:25
250,tual,-5.6667,132.75,82.56,79,heavy intensity rain,100,7.78,ID,2025-03-06 15:19:26
251,terbuny,52.1389,38.2789,42.53,77,broken clouds,57,17.25,RU,2025-03-06 15:19:27
252,aurec-sur-loire,45.3691,4.2049,47.62,78,scattered clouds,32,4.61,FR,2025-03-06 15:19:28
253,nadym,65.5333,72.5167,-1.53,99,broken clouds,67,9.95,RU,2025-03-06 15:19:29
254,beyla,8.6833,-8.6333,85.26,39,overcast clouds,100,4.18,GN,2025-03-06 15:19:30
255,vysokaya gora,55.9128,49.3017,18.57,96,overcast clouds,99,4.12,RU,2025-03-06 15:19:32
256,lunglei,22.8833,92.7333,56.03,60,clear sky,0,3.38,IN,2025-03-06 15:19:33
257,mar del plata,-38.0023,-57.5575,76.51,91,clear sky,0,11.5,AR,2025-03-06 15:19:34
258,manismata,-2.4667,111.0333,74.19,98,light rain,100,4.09,ID,2025-03-06 15:19:35
259,ugoofaaru,5.6667,73.0,81.05,75,clear sky,5,4.54,MV,2025-03-06 15:19:36
260,tofol,5.3248,163.0078,82.76,75,broken clouds,57,21.77,FM,2025-03-06 15:19:37
261,quibdo,5.6947,-76.6611,77.34,94,broken clouds,75,8.01,CO,2025-03-06 15:15:48
262,boca do acre,-8.7522,-67.3978,76.93,96,overcast clouds,100,2.57,BR,2025-03-06 15:19:39
263,mariehamn,60.0973,19.9348,46.26,81,clear sky,0,8.05,AX,2025-03-06 15:19:40
264,songea,-10.6833,35.65,64.99,94,clear sky,6,2.37,TZ,2025-03-06 15:19:41
265,tyukhtet,56.5389,89.3011,17.64,83,overcast clouds,100,10.09,RU,2025-03-06 15:19:43
266,batac city,18.0554,120.5649,76.78,73,few clouds,20,16.11,PH,2025-03-06 15:19:44
267,palikir - national government center,6.9248,158.1611,81.45,73,scattered clouds,40,9.22,FM,2025-03-06 15:19:45
268,ntoum,0.3833,9.7833,77.31,91,overcast clouds,100,3.96,GA,2025-03-06 15:19:46
269,arkhangel'sk,64.5401,40.5433,30.31,93,light shower snow,100,6.71,RU,2025-03-06 15:19:47
270,hanzhong,33.0728,107.0303,45.91,66,overcast clouds,100,0.31,CN,2025-03-06 15:19:49
271,quezon,7.7303,125.0989,70.79,95,overcast clouds,97,3.38,PH,2025-03-06 15:19:50
272,fortuna,40.5982,-124.1573,53.98,84,overcast clouds,100,20.71,US,2025-03-06 15:19:52
273,divnogorsk,55.9594,92.3619,3.69,99,broken clouds,77,2.55,RU,2025-03-06 15:19:53
274,capao da canoa,-29.7456,-50.0097,78.73,82,clear sky,0,15.86,BR,2025-03-06 15:19:15
275,broken hill,-31.95,141.4333,70.05,34,clear sky,0,10.47,AU,2025-03-06 15:19:55
276,abengourou,6.7297,-3.4964,82.24,64,overcast clouds,100,7.38,CI,2025-03-06 15:19:56
277,tobelo,1.7284,128.0095,80.31,80,overcast clouds,100,5.21,ID,2025-03-06 15:19:58
278,santa rosalia,27.3167,-112.2833,71.71,32,overcast clouds,100,6.02,MX,2025-03-06 15:19:59
279,jeremie,18.65,-74.1167,80.87,72,scattered clouds,31,6.44,HT,2025-03-06 15:20:00
280,cavalaire-sur-mer,43.174,6.5272,53.11,75,overcast clouds,100,18.92,FR,2025-03-06 15:20:01
281,mitu,1.1983,-70.1733,75.63,42,overcast clouds,100,2.62,CO,2025-03-06 15:20:02
282,sumbe,-11.2061,13.8437,79.66,89,overcast clouds,91,11.03,AO,2025-03-06 15:20:03
283,nenjiang,49.1833,125.2167,-1.91,100,overcast clouds,100,2.77,CN,2025-03-06 15:20:04
284,forster,-32.1667,152.5167,71.2,81,broken clouds,84,17.16,AU,2025-03-06 15:20:05
285,beipiao,41.7919,120.7792,29.17,34,overcast clouds,100,3.69,CN,2025-03-06 15:20:07
286,nizhniy kuranakh,58.8353,125.4869,-6.63,98,overcast clouds,97,3.31,RU,2025-03-06 15:20:09
287,sheffield,53.383,-1.4659,55.24,73,overcast clouds,100,13.91,GB,2025-03-06 15:17:02
288,yeed,4.55,43.0333,86.22,30,clear sky,6,8.5,SO,2025-03-06 15:20:11
289,vila velha,-20.3297,-40.2925,82.35,74,clear sky,0,10.36,BR,2025-03-06 15:16:29
290,celestun,20.8667,-90.4,81.52,55,clear sky,3,17.11,MX,2025-03-06 15:20:13
291,muynoq,43.7683,59.0214,37.36,97,moderate rain,100,27.67,UZ,2025-03-06 15:20:14
292,carbonear,47.7332,-53.2148,35.15,93,overcast clouds,100,13.85,CA,2025-03-06 15:20:15
293,usogorsk,63.4106,48.6872,21.67,93,overcast clouds,97,8.79,RU,2025-03-06 15:19:03
294,gwadar,25.1216,62.3254,74.01,56,clear sky,0,11.63,PK,2025-03-06 15:20:19
295,praia da vitoria,38.7333,-27.0667,52.05,76,scattered clouds,40,29.55,PT,2025-03-06 15:20:20
296,nova sintra,14.8667,-24.7167,70.74,68,clear sky,0,18.9,CV,2025-03-06 15:20:22
297,minas de marcona,-15.2119,-75.1103,72.34,65,broken clouds,65,10.45,PE,2025-03-06 15:20:23
298,muisne,0.6,-80.0333,79.75,77,overcast clouds,100,2.33,EC,2025-03-06 15:20:24
299,mili,6.0815,171.735,81.09,78,clear sky,3,22.82,MH,2025-03-06 15:20:25
300,alice springs,-23.7,133.8833,67.55,40,clear sky,0,4.61,AU,2025-03-06 15:20:26
301,lianyuan,27.6883,111.6642,41.49,94,light rain,100,6.24,CN,2025-03-06 15:17:15
302,wynne,35.2245,-90.7868,51.4,36,few clouds,13,3.94,US,2025-03-06 15:20:29
303,al mijlad,11.0333,27.7333,81.93,13,scattered clouds,28,19.55,SD,2025-03-06 15:20:30
304,conduaga,8.862,117.4893,77.16,87,overcast clouds,94,1.07,PH,2025-03-06 15:20:31
305,kushk,33.2957,61.9522,56.98,43,overcast clouds,100,3.31,AF,2025-03-06 15:20:33
306,olavarria,-36.8927,-60.3225,87.71,54,overcast clouds,100,8.61,AR,2025-03-06 15:20:26
307,nemuro,43.3236,145.575,27.54,85,overcast clouds,98,11.34,JP,2025-03-06 15:20:35
308,skeldon,5.8833,-57.1333,81.77,70,broken clouds,66,9.08,GY,2025-03-06 15:20:36
309,aykol,38.1751,77.2132,39.88,30,clear sky,0,6.53,CN,2025-03-06 15:20:37
310,kombissiri,12.0656,-1.3375,92.88,27,overcast clouds,95,1.92,BF,2025-03-06 15:20:38
311,masterton,-40.9597,175.6575,50.16,73,clear sky,0,1.74,NZ,2025-03-06 15:20:39
312,ikalamavony,-21.15,46.5833,69.93,88,scattered clouds,26,6.6,MG,2025-03-06 15:20:40
313,comandante fontana,-25.3345,-59.6821,99.05,27,overcast clouds,100,9.4,AR,2025-03-06 15:20:42
314,rio grande,-32.035,-52.0986,83.93,65,clear sky,9,17.94,BR,2025-03-06 15:16:12
315,malangali,-8.5667,34.85,66.52,84,overcast clouds,91,11.27,TZ,2025-03-06 15:20:44
316,vilyuysk,63.7553,121.6247,-6.09,100,overcast clouds,100,2.68,RU,2025-03-06 15:20:46
317,san antonio de pale,-1.4014,5.6325,81.48,79,overcast clouds,98,14.23,GQ,2025-03-06 15:20:49
318,sukhothai,17.25,99.6667,81.5,32,broken clouds,52,3.98,TH,2025-03-06 15:20:50
319,saacow,1.6279,42.4407,81.7,64,scattered clouds,32,15.5,SO,2025-03-06 15:20:51
320,zheleznodorozhnyy,55.7503,38.0042,45.95,86,overcast clouds,100,16.08,RU,2025-03-06 15:20:52
321,senanga,-16.1167,23.2667,74.59,71,overcast clouds,90,7.34,ZM,2025-03-06 15:20:53
322,kerikeri,-35.2268,173.9474,59.14,66,clear sky,1,3.74,NZ,2025-03-06 15:20:54
323,newman,37.3138,-121.0208,55.06,60,overcast clouds,86,3.0,US,2025-03-06 15:20:55
324,sanctuary point,-35.1114,150.629,65.1,81,few clouds,23,7.61,AU,2025-03-06 15:20:58
325,shakawe,-18.3667,21.85,71.87,78,clear sky,9,5.3,BW,2025-03-06 15:21:00
326,malabar,-33.9667,151.25,70.65,78,broken clouds,75,19.57,AU,2025-03-06 15:21:01
327,scottburgh,-30.2867,30.7532,76.6,95,scattered clouds,38,11.86,ZA,2025-03-06 15:21:02
328,jimma,7.6667,36.8333,65.34,79,overcast clouds,100,2.86,ET,2025-03-06 15:21:03
329,merano,46.6682,11.1595,47.55,69,clear sky,5,4.18,IT,2025-03-06 15:21:04
330,bakanas,44.8081,76.2772,43.21,61,light rain,100,11.14,KZ,2025-03-06 15:21:05
331,panaba,21.2833,-88.2667,87.24,35,clear sky,0,12.19,MX,2025-03-06 15:21:06
332,margate,51.3813,1.3862,50.88,68,broken clouds,74,1.01,GB,2025-03-06 15:12:04
333,ulanhot,46.0833,122.0833,25.74,40,overcast clouds,100,7.29,CN,2025-03-06 15:21:09
334,nyandoma,61.669,40.1991,31.1,99,light snow,100,3.85,RU,2025-03-06 15:21:10
335,capanema,-1.1958,-47.1808,78.53,89,overcast clouds,100,1.86,BR,2025-03-06 15:21:11
336,fontanelas,38.8472,-9.4372,57.61,85,few clouds,20,3.44,PT,2025-03-06 15:21:12
337,zhezqazghan,47.7833,67.7667,26.47,92,overcast clouds,100,15.5,KZ,2025-03-06 15:21:13
338,cidade velha,14.9167,-23.6167,68.47,64,scattered clouds,40,17.27,CV,2025-03-06 15:21:15
339,burriana,39.889,-0.085,58.69,91,broken clouds,71,12.95,ES,2025-03-06 15:21:16
340,ciudad del carmen,18.6333,-91.8333,80.64,65,scattered clouds,40,13.8,MX,2025-03-06 15:20:45
341,kalabo,-14.97,22.6814,76.28,67,overcast clouds,100,6.04,ZM,2025-03-06 15:21:19
342,chernyshevskiy,63.0128,112.4714,0.14,99,overcast clouds,100,2.66,RU,2025-03-06 15:21:20
343,sudzha,51.1976,35.2726,48.47,53,clear sky,6,17.47,RU,2025-03-06 15:21:21
344,anadyr,64.75,177.4833,-16.1,69,clear sky,0,13.42,RU,2025-03-06 15:21:22
345,northam,51.0333,-4.2167,51.8,93,overcast clouds,100,3.0,GB,2025-03-06 15:21:23
346,lensk,60.7253,114.9278,13.98,95,light snow,100,6.13,RU,2025-03-06 15:21:24
347,mogocha,53.7333,119.7667,-7.82,100,overcast clouds,89,2.04,RU,2025-03-06 15:21:25
348,mouila,-1.8685,11.0559,75.83,94,light rain,98,0.81,GA,2025-03-06 15:21:27
349,saipan,15.1355,145.701,79.5,88,few clouds,20,8.05,MP,2025-03-06 15:18:29
350,linxia chengguanzhen,35.6003,103.2064,19.63,87,broken clouds,60,2.15,CN,2025-03-06 15:21:29
351,nassau,40.7507,-73.5829,53.29,58,overcast clouds,100,13.8,US,2025-03-06 15:21:30
352,wanning,18.8003,110.3967,62.15,88,overcast clouds,100,13.24,CN,2025-03-06 15:21:31
353,dompu,-8.5356,118.4622,74.62,97,broken clouds,71,1.19,ID,2025-03-06 15:21:32
354,colon,9.3592,-79.9014,86.36,65,overcast clouds,100,7.0,PA,2025-03-06 15:21:33
355,mermoz boabab,14.7065,-17.4758,65.98,72,clear sky,0,11.5,SN,2025-03-06 15:21:34
356,guadalupe y calvo,26.1,-106.9667,63.05,10,clear sky,9,13.8,MX,2025-03-06 15:21:35
357,itamaraju,-17.0392,-39.5311,78.26,74,broken clouds,62,8.52,BR,2025-03-06 15:18:47
358,sarandi del yi,-33.35,-55.6333,101.3,20,clear sky,3,10.13,UY,2025-03-06 15:21:38
359,chonchi,-42.6128,-73.8092,63.12,65,overcast clouds,100,3.47,CL,2025-03-06 15:21:40
360,port isabel,26.0734,-97.2086,78.04,53,broken clouds,75,26.46,US,2025-03-06 15:21:41
361,lumphat,13.4878,106.9816,78.39,71,overcast clouds,95,8.88,KH,2025-03-06 15:17:04
362,fada,7.25,4.0667,80.22,77,overcast clouds,98,5.91,NG,2025-03-06 15:21:43
363,nuuk,64.1835,-51.7216,12.81,85,light snow,100,6.91,GL,2025-03-06 15:18:02
364,spring creek,40.7266,-115.5859,33.49,89,light snow,100,8.93,US,2025-03-06 15:17:07
365,ovalle,-30.5983,-71.2003,81.9,38,clear sky,1,11.32,CL,2025-03-06 15:21:48
366,badiyah,22.45,58.8,70.65,35,clear sky,0,1.45,OM,2025-03-06 15:21:49
367,narrabri,-30.3167,149.7833,67.51,72,clear sky,0,8.01,AU,2025-03-06 15:21:50
368,shimoda,34.6667,138.95,42.17,91,light rain,99,4.12,JP,2025-03-06 15:21:51
369,karratha,-20.7377,116.8463,88.56,48,clear sky,0,6.53,AU,2025-03-06 15:21:52
370,qurayyat,31.3318,37.3428,51.98,93,thunderstorm with rain,75,11.5,SA,2025-03-06 15:21:53
371,nizao,18.25,-70.2,82.13,65,few clouds,20,9.48,DO,2025-03-06 15:21:57
372,gulma,12.6423,4.3555,85.93,11,overcast clouds,100,1.5,NG,2025-03-06 15:21:58
373,darwin,-12.4611,130.8418,76.98,100,few clouds,13,4.61,AU,2025-03-06 15:22:00
374,quellon,-43.1167,-73.6167,58.87,67,overcast clouds,100,7.05,CL,2025-03-06 15:22:01
375,crane,31.3974,-102.3501,77.77,15,overcast clouds,96,29.8,US,2025-03-06 15:22:03
376,tralee,52.2704,-9.7026,48.4,97,overcast clouds,100,2.13,IE,2025-03-06 15:22:04
377,wakkanai,45.4094,141.6739,28.24,73,overcast clouds,100,19.48,JP,2025-03-06 15:22:05
378,longgang,37.6508,120.3286,34.66,54,overcast clouds,100,5.08,CN,2025-03-06 15:22:06
379,santana,-0.0583,-51.1817,82.58,83,light rain,40,10.36,BR,2025-03-06 15:22:07
380,nampa,43.5407,-116.5635,53.26,37,clear sky,0,20.71,US,2025-03-06 15:22:08
381,saint-philippe,-21.3585,55.7679,79.68,82,clear sky,1,13.62,RE,2025-03-06 15:22:09
382,lupane,-18.9315,27.807,69.19,82,clear sky,5,2.26,ZW,2025-03-06 15:22:10
383,dwarka,22.2394,68.9678,74.8,66,clear sky,0,11.21,IN,2025-03-06 15:22:12
384,greenville,35.6127,-77.3663,51.75,44,overcast clouds,100,11.99,US,2025-03-06 15:22:13
385,san nicolas,18.1725,120.5953,76.91,73,few clouds,20,16.11,PH,2025-03-06 15:22:14
386,buon ma thuot,12.6667,108.05,72.28,82,broken clouds,76,8.97,VN,2025-03-06 15:22:15
387,dalandzadgad,43.5708,104.425,28.92,53,broken clouds,73,3.2,MN,2025-03-06 15:22:16
388,kem',64.9555,34.5793,17.49,98,overcast clouds,100,4.92,RU,2025-03-06 15:22:17
389,maintirano,-18.0667,44.0167,81.64,86,light rain,55,9.82,MG,2025-03-06 15:22:18
390,noumea,-22.2763,166.4572,75.78,79,clear sky,3,9.6,NC,2025-03-06 15:22:19
391,sitka,57.0531,-135.33,42.69,81,light rain,75,8.05,US,2025-03-06 15:22:20
392,grand forks,47.9417,-97.4337,35.53,25,clear sky,0,9.22,US,2025-03-06 15:22:22
393,albufeira,37.0882,-8.2503,60.03,82,few clouds,13,3.53,PT,2025-03-06 15:20:49
394,shizuishan,39.2333,106.7694,32.29,52,few clouds,15,1.77,CN,2025-03-06 15:22:25
395,chinde,26.8212,87.7095,60.73,37,clear sky,0,7.43,NP,2025-03-06 15:22:26
396,hammerfest,70.6634,23.6821,27.05,86,few clouds,20,3.44,NO,2025-03-06 15:22:27
397,reggane,26.7158,0.1714,60.1,80,overcast clouds,100,15.08,DZ,2025-03-06 15:22:28
398,tambopata,-12.7333,-69.1833,76.89,83,light rain,20,8.05,PE,2025-03-06 15:22:29
399,eldorado,-23.7869,-54.2836,92.55,39,overcast clouds,86,16.6,BR,2025-03-06 15:22:30
400,valparaiso,-33.0393,-71.6273,74.46,58,broken clouds,75,14.97,CL,2025-03-06 15:21:26
401,port macquarie,-31.4333,152.9167,70.07,92,overcast clouds,100,3.0,AU,2025-03-06 15:22:32
402,polyarnyy,69.1989,33.4478,20.35,94,overcast clouds,95,5.7,RU,2025-03-06 15:22:33
403,betio village,1.358,172.9211,80.64,83,light rain,7,17.38,KI,2025-03-06 15:22:36
404,mil'kovo,55.6078,37.7956,48.34,61,overcast clouds,100,17.34,RU,2025-03-06 15:22:37
405,macau,22.2006,113.5461,55.13,88,scattered clouds,40,17.27,MO,2025-03-06 15:19:33
406,chardara,41.2547,67.9692,49.5,47,overcast clouds,100,8.81,KZ,2025-03-06 15:22:39
407,piacabucu,-10.4056,-36.4344,81.95,73,clear sky,10,11.32,BR,2025-03-06 15:22:40
408,kijang,35.2442,129.2139,31.73,77,clear sky,8,5.37,KR,2025-03-06 15:22:41
409,susuman,62.7833,148.1667,-44.25,100,overcast clouds,91,1.25,RU,2025-03-06 15:22:42
410,champerico,14.3,-91.9167,85.84,58,clear sky,0,11.14,GT,2025-03-06 15:22:43
411,kristiansund,63.1115,7.732,43.12,87,broken clouds,75,3.44,NO,2025-03-06 15:22:45
412,arawa,-6.2132,155.5367,76.89,90,overcast clouds,93,0.69,PG,2025-03-06 15:22:46
413,swift current,50.2834,-107.8014,36.41,64,clear sky,0,11.5,CA,2025-03-06 15:22:10
414,akrehamn,59.2667,5.1833,43.05,87,clear sky,0,17.27,NO,2025-03-06 15:22:48
415,at taraf,25.3628,49.725,64.94,45,overcast clouds,100,12.39,SA,2025-03-06 15:22:49
416,midvagur,62.0511,-7.1939,38.23,81,moderate rain,100,5.75,FO,2025-03-06 15:22:50
417,beau vallon,-20.4189,57.6953,82.63,78,light rain,40,13.8,MU,2025-03-06 15:22:51
418,canico,32.6333,-16.85,62.01,89,broken clouds,75,2.3,PT,2025-03-06 15:22:52
419,tadine,-21.55,167.8833,76.01,72,few clouds,18,8.5,NC,2025-03-06 15:22:53
420,inhambane,-23.865,35.3833,77.32,88,clear sky,7,6.64,MZ,2025-03-06 15:22:55
421,sant'agata di militello,38.0679,14.6327,51.91,74,few clouds,22,10.92,IT,2025-03-06 15:22:56
422,nowa sarzyna,50.3209,22.3446,48.96,52,clear sky,0,11.97,PL,2025-03-06 15:22:57
423,luderitz,-26.6481,15.1594,69.76,65,broken clouds,61,15.95,NA,2025-03-06 15:22:58
424,as sulayyil,20.4607,45.5779,83.44,26,overcast clouds,95,9.24,SA,2025-03-06 15:22:59
425,al bawiti,28.3492,28.8659,62.91,49,overcast clouds,95,13.8,EG,2025-03-06 15:23:00
426,island harbour,50.724,-1.2758,55.0,75,overcast clouds,100,3.0,GB,2025-03-06 15:23:01
427,yingkou,40.6648,122.2283,32.27,56,overcast clouds,100,4.83,CN,2025-03-06 15:23:02
428,amuntai,-2.4177,115.2494,75.18,99,heavy intensity rain,100,0.96,ID,2025-03-06 15:23:03
429,queenstown,-31.8976,26.8753,70.77,86,light rain,61,4.34,ZA,2025-03-06 15:23:05
430,berezovyy,51.6667,135.7,-2.54,99,overcast clouds,100,2.73,RU,2025-03-06 15:23:06
431,isla vista,34.4133,-119.861,53.62,72,overcast clouds,100,10.36,US,2025-03-06 15:23:07
432,troitsk,54.0979,61.5773,2.55,100,broken clouds,77,4.36,RU,2025-03-06 15:23:08
433,tura,25.5198,90.2201,60.57,31,clear sky,0,3.67,IN,2025-03-06 15:23:09
434,kawm hamadah,30.761,30.6973,51.44,93,clear sky,0,6.49,EG,2025-03-06 15:23:10
435,geraldton,-28.7667,114.6,75.61,78,light rain,100,8.05,AU,2025-03-06 15:22:22
436,labytnangi,66.6572,66.4183,-3.19,99,overcast clouds,100,5.79,RU,2025-03-06 15:23:12
437,long beach,33.767,-118.1892,59.09,63,scattered clouds,40,14.97,US,2025-03-06 15:20:45
438,carutapera,-1.195,-46.02,79.57,82,light rain,94,6.29,BR,2025-03-06 15:23:15
439,tarawa,1.419,172.984,80.69,89,light rain,40,9.22,KI,2025-03-06 15:23:16
440,salekhard,66.53,66.6019,-7.67,100,overcast clouds,100,5.41,RU,2025-03-06 15:23:18
441,arraial do cabo,-22.9661,-42.0278,85.96,70,few clouds,20,11.5,BR,2025-03-06 15:23:19
442,amalapuram,16.5833,82.0167,72.21,98,few clouds,13,2.33,IN,2025-03-06 15:23:20
443,chui,-33.6971,-53.4616,90.43,49,clear sky,0,12.91,UY,2025-03-06 15:23:22
444,buala,-8.145,159.5921,78.39,84,overcast clouds,100,3.74,SB,2025-03-06 15:23:23
445,kupang,-10.1667,123.5833,75.78,94,overcast clouds,97,2.3,ID,2025-03-06 15:23:24
446,la ronge,55.1001,-105.2842,12.45,52,light snow,20,9.22,CA,2025-03-06 15:23:25
447,mugia,43.1041,-9.2179,51.91,75,overcast clouds,100,10.07,ES,2025-03-06 15:23:27
448,xai-xai,-25.0519,33.6442,76.82,87,scattered clouds,27,7.67,MZ,2025-03-06 15:23:28
449,abu zabad,12.35,29.25,76.78,14,clear sky,3,15.75,SD,2025-03-06 15:23:29
450,mount isa,-20.7333,139.5,67.77,77,clear sky,0,0.0,AU,2025-03-06 15:21:42
451,andergrove,-21.0833,149.1833,75.34,80,clear sky,4,5.28,AU,2025-03-06 15:23:31
452,salinas,36.6777,-121.6555,51.89,88,clear sky,0,11.5,US,2025-03-06 15:11:11
453,nehe,48.4833,124.8333,-3.41,100,broken clouds,84,4.05,CN,2025-03-06 15:23:34
454,cuito,-12.3833,16.9333,64.31,87,overcast clouds,96,0.63,AO,2025-03-06 15:23:35
455,culfa,38.9558,45.6308,37.27,50,clear sky,0,0.58,AZ,2025-03-06 15:23:36
456,changling,44.2653,124.0005,24.19,57,broken clouds,73,8.7,CN,2025-03-06 15:23:37
457,bandarbeyla,9.4942,50.8122,77.52,80,clear sky,8,13.13,SO,2025-03-06 15:23:38
458,jamjamal,35.5365,44.8317,53.2,56,clear sky,0,5.03,IQ,2025-03-06 15:23:39
459,luanco,43.6152,-5.7934,55.02,92,overcast clouds,95,4.0,ES,2025-03-06 15:23:40
460,turbat,26.0023,63.044,74.44,26,clear sky,0,1.59,PK,2025-03-06 15:19:14
461,acarau,-2.8856,-40.12,79.32,81,overcast clouds,100,6.08,BR,2025-03-06 15:23:43
462,benghazi,32.1167,20.0667,64.18,52,overcast clouds,100,3.6,LY,2025-03-06 15:23:44
463,shiraz,29.6036,52.5388,47.64,93,moderate rain,100,0.0,IR,2025-03-06 15:23:45
464,motueka,-41.1333,173.0167,58.1,84,broken clouds,78,2.21,NZ,2025-03-06 15:23:46
465,o barco de valdeorras,42.4164,-6.9901,50.36,96,overcast clouds,100,1.68,ES,2025-03-06 15:23:49
466,santa ana de yacuma,-13.75,-65.4333,78.75,89,broken clouds,75,5.75,BO,2025-03-06 15:23:50
467,la'ie,21.6477,-157.9253,81.05,71,clear sky,0,7.0,US,2025-03-06 15:23:51
468,aoulef,26.9667,1.0833,58.21,84,overcast clouds,100,13.71,DZ,2025-03-06 15:23:52
469,morazan,15.3167,-87.6,89.02,40,scattered clouds,44,6.69,HN,2025-03-06 15:23:53
470,bengkulu,-3.8004,102.2655,74.26,90,light rain,100,6.04,ID,2025-03-06 15:23:54
471,byerazino,53.8391,28.9879,48.67,50,clear sky,0,15.75,BY,2025-03-06 15:23:55
472,nouadhibou,20.931,-17.0347,66.18,72,clear sky,0,19.57,MR,2025-03-06 15:23:56
473,gordes,38.9328,28.2894,50.83,48,clear sky,4,7.65,TR,2025-03-06 15:23:58
474,elkins,38.9259,-79.8467,30.27,78,light snow,100,8.05,US,2025-03-06 15:23:25
475,nikol'sk,53.7189,46.0712,33.26,99,snow,100,8.97,RU,2025-03-06 15:24:00
476,mukalla,14.5425,49.1242,73.96,77,clear sky,0,6.06,YE,2025-03-06 15:24:02
477,grande prairie,55.1667,-118.8027,42.98,49,scattered clouds,40,12.66,CA,2025-03-06 15:21:10
478,asaita,11.5636,41.4394,78.26,63,clear sky,4,11.01,ET,2025-03-06 15:24:05
479,robore,-18.3333,-59.75,91.49,58,scattered clouds,40,0.0,BO,2025-03-06 15:24:06
480,miranda do douro,41.4969,-6.2731,49.03,93,overcast clouds,100,6.15,PT,2025-03-06 15:24:07
481,bubaque,11.2833,-15.8333,74.44,73,few clouds,20,21.52,GW,2025-03-06 15:24:08
482,bandar abbas,27.1865,56.2808,71.58,43,scattered clouds,40,6.91,IR,2025-03-06 15:24:09
483,cannonvale,-20.2833,148.7,79.99,84,clear sky,8,7.52,AU,2025-03-06 15:24:11
484,fenoarivo be,-18.4333,46.5667,69.13,81,scattered clouds,30,5.79,MG,2025-03-06 15:24:12
485,chibuto,-24.6867,33.5306,75.02,87,broken clouds,65,5.79,MZ,2025-03-06 15:24:14
486,maua,-23.6678,-46.4614,82.2,67,few clouds,18,12.48,BR,2025-03-06 15:24:15
487,undurkhaan,47.3194,110.6556,19.08,73,broken clouds,83,4.74,MN,2025-03-06 15:24:16
488,yarmouth,41.7057,-70.2286,47.97,96,fog,100,6.91,US,2025-03-06 15:24:18
489,boende,-0.2167,20.8667,76.21,84,scattered clouds,49,1.7,CD,2025-03-06 15:24:20
490,westport,41.1415,-73.3579,52.81,64,scattered clouds,38,11.99,US,2025-03-06 15:24:21
491,beboto,8.2668,16.939,86.18,14,broken clouds,67,3.33,TD,2025-03-06 15:24:22
492,remire-montjoly,4.9167,-52.2667,77.04,94,overcast clouds,100,12.66,GF,2025-03-06 15:24:23
493,suifenhe,44.4,131.1667,13.75,92,clear sky,3,4.05,CN,2025-03-06 15:24:25
494,castillos,-34.1667,-53.8333,91.45,44,clear sky,0,12.39,UY,2025-03-06 15:24:26
495,calvinia,-31.4707,19.776,75.58,30,clear sky,8,4.81,ZA,2025-03-06 15:24:27
496,akureyri,65.6835,-18.0878,31.93,86,overcast clouds,100,2.3,IS,2025-03-06 15:24:30
497,yanbu,24.0891,38.0637,68.04,64,clear sky,0,5.75,SA,2025-03-06 15:24:31
498,griffith,41.5284,-87.4237,40.55,46,clear sky,0,4.0,US,2025-03-06 15:18:05
499,nis,43.7031,7.2661,58.8,54,clear sky,0,19.57,FR,2025-03-06 15:24:33
500,kingston,17.997,-76.7936,86.16,66,few clouds,20,8.05,JM,2025-03-06 15:24:34
501,at taj,24.2049,23.2857,58.21,37,broken clouds,75,9.1,LY,2025-03-06 15:21:36
502,tharangambadi,11.0319,79.8528,77.72,75,few clouds,23,4.9,IN,2025-03-06 15:24:36
503,posse,-14.0931,-46.3694,80.74,51,overcast clouds,87,6.82,BR,2025-03-06 15:24:38
504,tezu,27.9167,96.1667,62.64,49,clear sky,0,4.38,IN,2025-03-06 15:24:39
505,swakopmund,-22.6833,14.5333,67.53,78,few clouds,18,5.7,NA,2025-03-06 15:24:40
506,villa gesell,-37.2639,-56.973,76.12,84,broken clouds,59,10.67,AR,2025-03-06 15:24:41
507,bongaree,-27.0797,153.1586,72.72,89,moderate rain,100,32.5,AU,2025-03-06 15:24:42
508,camarinas,43.1311,-9.1817,51.93,77,overcast clouds,100,9.89,ES,2025-03-06 15:24:43
509,chipinge,-20.1883,32.6236,64.92,94,scattered clouds,27,4.36,ZW,2025-03-06 15:20:41
510,pakxan,18.3778,103.6601,67.08,70,broken clouds,82,7.09,LA,2025-03-06 15:24:46
511,laitila,60.8758,21.6977,43.43,58,overcast clouds,100,15.39,FI,2025-03-06 15:24:47
512,utiel,39.5667,-1.2,48.54,88,overcast clouds,100,9.53,ES,2025-03-06 15:24:48
513,okhotsk,59.3833,143.3,-11.09,89,overcast clouds,100,7.87,RU,2025-03-06 15:24:49
514,sandnessjoen,66.0217,12.6316,37.51,81,broken clouds,75,11.5,NO,2025-03-06 15:24:50
515,atar,20.5169,-13.0499,72.54,25,clear sky,0,2.62,MR,2025-03-06 15:24:51
516,mizdah,31.4451,12.9801,55.99,79,overcast clouds,100,15.99,LY,2025-03-06 15:24:52
517,hassi messaoud,31.6804,6.0729,66.06,52,broken clouds,75,4.61,DZ,2025-03-06 15:24:53
518,ongjin,37.9347,125.3619,34.18,57,scattered clouds,38,3.31,KP,2025-03-06 15:24:55
519,bikenibeu village,1.3673,173.1241,80.56,89,light rain,40,9.22,KI,2025-03-06 15:24:56
520,kurchatov,51.6601,35.6521,48.65,51,few clouds,15,19.28,RU,2025-03-06 15:24:57
521,vanino,49.0869,140.2543,-10.32,98,scattered clouds,26,4.34,RU,2025-03-06 15:24:58
522,salalah,17.0151,54.0924,77.09,73,scattered clouds,40,3.44,OM,2025-03-06 15:24:59
523,prince albert,53.2001,-105.7677,21.15,73,scattered clouds,40,11.5,CA,2025-03-06 15:25:00
524,dallas,32.7668,-96.7836,67.77,29,broken clouds,75,13.8,US,2025-03-06 15:17:01
525,puerto san jose,13.9256,-90.8244,86.34,59,clear sky,0,12.44,GT,2025-03-06 15:22:26
526,ebon,4.582,168.6964,82.06,77,few clouds,14,19.62,MH,2025-03-06 15:25:06
527,calca,-13.3333,-71.95,61.95,81,overcast clouds,100,5.23,PE,2025-03-06 15:25:07
528,vernon,50.2581,-119.2691,47.73,55,overcast clouds,99,5.75,CA,2025-03-06 15:25:08
529,taft,31.7471,54.2088,51.75,50,clear sky,0,4.61,IR,2025-03-06 15:25:10
530,richards bay,-28.783,32.0377,77.86,86,clear sky,0,11.79,ZA,2025-03-06 15:25:11
531,kayes,14.0,-11.0,88.43,19,scattered clouds,41,5.03,ML,2025-03-06 15:25:12
532,belle fourche,44.6714,-103.8522,37.33,66,light rain,100,12.8,US,2025-03-06 15:25:13
533,kavaratti,10.5669,72.642,82.27,74,overcast clouds,100,6.55,IN,2025-03-06 15:25:14
534,soio,-6.1349,12.3689,79.61,91,overcast clouds,90,6.49,AO,2025-03-06 15:25:15
535,yesilhisar,38.3497,35.0867,40.12,53,clear sky,4,4.79,TR,2025-03-06 15:25:16
536,mawu,34.4307,104.9176,19.11,86,broken clouds,58,3.49,CN,2025-03-06 15:25:17
537,mersing,2.4312,103.8405,75.11,100,few clouds,20,3.44,MY,2025-03-06 15:25:18
538,korla,41.7597,86.1469,36.09,63,clear sky,2,2.19,CN,2025-03-06 15:25:19
539,alo,6.5486,4.2686,82.4,83,overcast clouds,100,10.98,NG,2025-03-06 15:26:32
540,cortina d'ampezzo,46.5384,12.1377,32.56,89,clear sky,2,1.74,IT,2025-03-06 15:24:25
541,weno,7.4515,151.8468,82.35,83,light rain,75,8.05,FM,2025-03-06 15:26:34
542,brasileia,-11.0161,-68.7481,75.65,94,moderate rain,100,0.0,BR,2025-03-06 15:26:35
543,arkalyk,50.2486,66.9114,23.94,96,light snow,100,15.43,KZ,2025-03-06 15:26:36
544,constantia,44.1833,28.65,47.08,59,clear sky,7,4.61,RO,2025-03-06 15:26:37
545,rondonopolis,-16.4708,-54.6356,86.9,61,overcast clouds,90,5.68,BR,2025-03-06 15:26:39
546,pacasmayo,-7.4006,-79.5714,79.95,68,overcast clouds,100,12.95,PE,2025-03-06 15:26:40
547,guerrero negro,27.9769,-114.0611,62.78,60,overcast clouds,100,17.56,MX,2025-03-06 15:26:41
548,traralgon,-38.1833,146.5333,59.54,92,clear sky,0,5.14,AU,2025-03-06 15:26:42
549,marquette,46.5333,-87.6335,33.33,75,overcast clouds,98,8.01,US,2025-03-06 15:26:43
550,lethbridge,49.7,-112.8186,41.11,60,few clouds,20,6.91,CA,2025-03-06 15:22:42
551,el calafate,-50.3408,-72.2768,43.47,92,light rain,100,4.23,AR,2025-03-06 15:26:45
552,camabatela,-8.1881,15.375,65.79,96,overcast clouds,100,2.46,AO,2025-03-06 15:26:46
553,passagem franca,-6.1797,-43.7836,82.56,64,light rain,98,1.59,BR,2025-03-06 15:26:47
554,sao felix do xingu,-6.6447,-51.995,84.06,71,broken clouds,56,3.02,BR,2025-03-06 15:26:49
555,port pirie,-33.1833,138.0167,68.58,50,clear sky,0,6.4,AU,2025-03-06 15:25:07
556,conception bay south,47.4999,-52.9981,33.55,94,overcast clouds,100,16.53,CA,2025-03-06 15:26:51
557,taltal,-25.4,-70.4833,69.24,73,scattered clouds,41,3.51,CL,2025-03-06 15:26:52
558,peace river,56.2501,-117.286,41.31,56,clear sky,0,13.8,CA,2025-03-06 15:23:27
559,saint-pierre,-21.3393,55.4781,80.28,74,clear sky,0,3.44,RE,2025-03-06 15:26:54
560,xilin hot,43.9667,116.0333,25.65,50,overcast clouds,100,7.92,CN,2025-03-06 15:26:55
561,kansanshi,-12.0951,26.4273,64.27,97,overcast clouds,100,4.07,ZM,2025-03-06 15:26:57
562,plymouth,41.8334,-70.8328,52.99,93,mist,100,5.75,US,2025-03-06 15:21:22
563,dalai,45.5,124.3,24.57,48,overcast clouds,96,8.93,CN,2025-03-06 15:27:01
564,mahina,-17.5065,-149.489,85.77,62,broken clouds,72,11.5,PF,2025-03-06 15:27:02
565,corinto,37.9407,22.9573,49.89,62,clear sky,0,2.53,GR,2025-03-06 15:27:03
566,moranbah,-22.0016,148.0466,74.34,73,overcast clouds,96,2.15,AU,2025-03-06 15:27:04
567,porbandar,21.6422,69.6093,74.91,48,clear sky,0,9.98,IN,2025-03-06 15:27:05
568,yeppoon,-23.1333,150.7333,74.71,76,clear sky,0,6.4,AU,2025-03-06 15:27:06
569,dolinsk,47.35,142.8,17.87,97,snow,100,6.6,RU,2025-03-06 15:27:07
570,rawson,-43.3002,-65.1023,91.69,38,clear sky,0,20.71,AR,2025-03-06 15:27:09
571,saint-jean-sur-richelieu,45.3168,-73.2659,39.94,66,broken clouds,79,18.99,CA,2025-03-06 15:27:10
572,okha,53.5739,142.9478,-21.05,100,broken clouds,74,7.16,RU,2025-03-06 15:27:11
573,yoichi,43.2039,140.7703,30.25,73,snow,100,17.05,JP,2025-03-06 15:27:12
